{"places":[{"name":"Vatican City","lat":41.9033,"lng":12.4534,"kind":"capital","pop":832},{"name":"San Marino","lat":43.9361,"lng":12.4418,"kind":"capital","pop":29579},{"name":"Vaduz","lat":47.1337,"lng":9.5167,"kind":"capital","pop":36281},{"name":"Lobamba","lat":-26.4667,"lng":31.2,"kind":"capital","pop":9782},{"name":"Luxembourg","lat":49.6117,"lng":6.13,"kind":"capital","pop":107260},{"name":"Palikir","lat":6.9166,"lng":158.15,"kind":"capital","pop":4645},{"name":"Majuro","lat":7.103,"lng":171.38,"kind":"capital","pop":25400},{"name":"Funafuti","lat":-8.5167,"lng":179.2166,"kind":"capital","pop":4749},{"name":"Melekeok","lat":7.4874,"lng":134.6265,"kind":"capital","pop":7026},{"name":"Bir Lehlou","lat":26.1192,"lng":-9.6525,"kind":"capital","pop":500},{"name":"Monaco","lat":43.7396,"lng":7.4069,"kind":"capital","pop":36371},{"name":"Tarawa","lat":1.3382,"lng":173.0176,"kind":"capital","pop":28802},{"name":"Moroni","lat":-11.7042,"lng":43.2402,"kind":"capital","pop":128698},{"name":"Andorra","lat":42.5,"lng":1.5165,"kind":"capital","pop":53998},{"name":"Port-of-Spain","lat":10.652,"lng":-61.517,"kind":"capital","pop":294934},{"name":"Kigali","lat":-1.9516,"lng":30.0586,"kind":"capital","pop":860000},{"name":"Mbabane","lat":-26.3167,"lng":31.1333,"kind":"capital","pop":90138},{"name":"Juba","lat":4.83,"lng":31.58,"kind":"capital","pop":111975},{"name":"The Hague","lat":52.08,"lng":4.27,"kind":"capital","pop":1406000},{"name":"Ljubljana","lat":46.0553,"lng":14.515,"kind":"capital","pop":314807},{"name":"Bratislava","lat":48.15,"lng":17.117,"kind":"capital","pop":423737},{"name":"Doha","lat":25.2866,"lng":51.533,"kind":"capital","pop":1450000},{"name":"Podgorica","lat":42.466,"lng":19.2663,"kind":"capital","pop":145850},{"name":"Sri Jayawardenepura Kotte","lat":6.9,"lng":79.95,"kind":"capital","pop":115826},{"name":"Baguio","lat":16.43,"lng":120.5699,"kind":"capital","pop":447824},{"name":"Dodoma","lat":-6.1833,"lng":35.75,"kind":"capital","pop":218269},{"name":"Bern","lat":46.9167,"lng":7.467,"kind":"capital","pop":275329},{"name":"Laayoune","lat":27.15,"lng":-13.2,"kind":"capital","pop":188084},{"name":"Pristina","lat":42.6667,"lng":21.166,"kind":"capital","pop":465186},{"name":"Roseau","lat":15.301,"lng":-61.387,"kind":"capital","pop":23336},{"name":"Djibouti","lat":11.595,"lng":43.148,"kind":"capital","pop":923000},{"name":"Putrajaya","lat":2.914,"lng":101.7019,"kind":"capital","pop":67964},{"name":"Kyoto","lat":35.0319,"lng":135.7481,"kind":"capital","pop":1805000},{"name":"Banjul","lat":13.4539,"lng":-16.5917,"kind":"capital","pop":43094},{"name":"Skopje","lat":42,"lng":21.4335,"kind":"capital","pop":494087},{"name":"Bridgetown","lat":13.102,"lng":-59.6165,"kind":"capital","pop":191152},{"name":"Porto-Novo","lat":6.4833,"lng":2.6166,"kind":"capital","pop":300000},{"name":"Bujumbura","lat":-3.3761,"lng":29.36,"kind":"capital","pop":331700},{"name":"Kingstown","lat":13.1483,"lng":-61.2121,"kind":"capital","pop":49485},{"name":"Castries","lat":14.002,"lng":-61,"kind":"capital","pop":37963},{"name":"Basseterre","lat":17.302,"lng":-62.717,"kind":"capital","pop":21887},{"name":"Port Louis","lat":-20.1666,"lng":57.5,"kind":"capital","pop":595491},{"name":"Saint George's","lat":12.0526,"lng":-61.7416,"kind":"capital","pop":33734},{"name":"Manama","lat":26.2361,"lng":50.5831,"kind":"capital","pop":563920},{"name":"Saint John's","lat":17.118,"lng":-61.85,"kind":"capital","pop":35499},{"name":"Montevideo","lat":-34.8561,"lng":-56.173,"kind":"capital","pop":1513000},{"name":"Lomé","lat":6.1339,"lng":1.2208,"kind":"capital","pop":1452000},{"name":"Tunis","lat":36.8028,"lng":10.1797,"kind":"capital","pop":2412500},{"name":"Abu Dhabi","lat":24.4667,"lng":54.3666,"kind":"capital","pop":603492},{"name":"Ashgabat","lat":37.95,"lng":58.3833,"kind":"capital","pop":727700},{"name":"Lusaka","lat":-15.4147,"lng":28.2814,"kind":"capital","pop":1328000},{"name":"Harare","lat":-17.8158,"lng":31.0428,"kind":"capital","pop":1572000},{"name":"Dili","lat":-8.5594,"lng":125.5795,"kind":"capital","pop":234331},{"name":"Port Vila","lat":-17.7334,"lng":168.3166,"kind":"capital","pop":44040},{"name":"Tegucigalpa","lat":14.104,"lng":-87.2195,"kind":"capital","pop":946000},{"name":"Georgetown","lat":6.802,"lng":-58.167,"kind":"capital","pop":264350},{"name":"Reykjavík","lat":64.15,"lng":-21.95,"kind":"capital","pop":166212},{"name":"Port-au-Prince","lat":18.543,"lng":-72.338,"kind":"capital","pop":1998000},{"name":"Kampala","lat":0.3186,"lng":32.5814,"kind":"capital","pop":1420000},{"name":"Paramaribo","lat":5.835,"lng":-55.167,"kind":"capital","pop":254169},{"name":"Niamey","lat":13.5187,"lng":2.1147,"kind":"capital","pop":915000},{"name":"Dushanbe","lat":38.56,"lng":68.7739,"kind":"capital","pop":1086244},{"name":"Asunción","lat":-25.2945,"lng":-57.6435,"kind":"capital","pop":1870000},{"name":"Managua","lat":12.155,"lng":-86.2704,"kind":"capital","pop":920000},{"name":"Freetown","lat":8.472,"lng":-13.2362,"kind":"capital","pop":827000},{"name":"Islamabad","lat":33.7019,"lng":73.1647,"kind":"capital","pop":780000},{"name":"Kathmandu","lat":27.7186,"lng":85.3147,"kind":"capital","pop":895000},{"name":"Bloemfontein","lat":-29.12,"lng":26.2299,"kind":"capital","pop":463064},{"name":"Pretoria","lat":-25.705,"lng":28.2275,"kind":"capital","pop":1338000},{"name":"Port Moresby","lat":-9.4647,"lng":147.1925,"kind":"capital","pop":283733},{"name":"Honiara","lat":-9.438,"lng":159.9498,"kind":"capital","pop":76328},{"name":"Panama City","lat":8.97,"lng":-79.535,"kind":"capital","pop":1281000},{"name":"Rabat","lat":34.0253,"lng":-6.8364,"kind":"capital","pop":1705000},{"name":"Chișinău","lat":47.005,"lng":28.8577,"kind":"capital","pop":688134},{"name":"Maputo","lat":-25.9533,"lng":32.5872,"kind":"capital","pop":1446000},{"name":"Mogadishu","lat":2.0686,"lng":45.3647,"kind":"capital","pop":1100000},{"name":"Muscat","lat":23.6133,"lng":58.5933,"kind":"capital","pop":734697},{"name":"Colombo","lat":6.932,"lng":79.8578,"kind":"capital","pop":217000},{"name":"Ulaanbaatar","lat":47.9186,"lng":106.9147,"kind":"capital","pop":885000},{"name":"Windhoek","lat":-22.57,"lng":17.0835,"kind":"capital","pop":268132},{"name":"Abuja","lat":9.0853,"lng":7.5314,"kind":"capital","pop":1576000},{"name":"Bissau","lat":11.865,"lng":-15.5984,"kind":"capital","pop":403339},{"name":"Amman","lat":31.952,"lng":35.9314,"kind":"capital","pop":1060000},{"name":"Vilnius","lat":54.6834,"lng":25.3166,"kind":"capital","pop":542366},{"name":"Riga","lat":56.95,"lng":24.1,"kind":"capital","pop":742572},{"name":"Bishkek","lat":42.875,"lng":74.5833,"kind":"capital","pop":837000},{"name":"Maseru","lat":-29.3167,"lng":27.4833,"kind":"capital","pop":361324},{"name":"Antananarivo","lat":-18.9147,"lng":47.5147,"kind":"capital","pop":1697000},{"name":"Quito","lat":-0.213,"lng":-78.502,"kind":"capital","pop":1701000},{"name":"San José","lat":9.937,"lng":-84.086,"kind":"capital","pop":1284000},{"name":"San Salvador","lat":13.7119,"lng":-89.205,"kind":"capital","pop":1433000},{"name":"Kingston","lat":17.9771,"lng":-76.7674,"kind":"capital","pop":937700},{"name":"N'Djamena","lat":12.115,"lng":15.0472,"kind":"capital","pop":989000},{"name":"Malabo","lat":3.75,"lng":8.7833,"kind":"capital","pop":155963},{"name":"Asmara","lat":15.3333,"lng":38.9333,"kind":"capital","pop":620802},{"name":"Zagreb","lat":45.8,"lng":16,"kind":"capital","pop":722526},{"name":"Tallinn","lat":59.4339,"lng":24.728,"kind":"capital","pop":394024},{"name":"Lilongwe","lat":-13.9833,"lng":33.7833,"kind":"capital","pop":646750},{"name":"Guatemala City","lat":14.6231,"lng":-90.5289,"kind":"capital","pop":1024000},{"name":"Libreville","lat":0.3854,"lng":9.458,"kind":"capital","pop":578156},{"name":"Suva","lat":-18.133,"lng":178.4417,"kind":"capital","pop":175399},{"name":"Valparaíso","lat":-33.0458,"lng":-71.623,"kind":"capital","pop":854000},{"name":"Nouakchott","lat":18.0864,"lng":-15.9753,"kind":"capital","pop":742144},{"name":"Bamako","lat":12.652,"lng":-8.002,"kind":"capital","pop":1494000},{"name":"Beirut","lat":33.8739,"lng":35.5078,"kind":"capital","pop":1846000},{"name":"Tbilisi","lat":41.727,"lng":44.7888,"kind":"capital","pop":1100000},{"name":"Nur-Sultan","lat":51.1811,"lng":71.4278,"kind":"capital","pop":345604},{"name":"Vientiane","lat":17.9667,"lng":102.6,"kind":"capital","pop":754000},{"name":"Brazzaville","lat":-4.2572,"lng":15.2827,"kind":"capital","pop":1355000},{"name":"Conakry","lat":9.5335,"lng":-13.6822,"kind":"capital","pop":1494000},{"name":"Yamoussoukro","lat":6.8184,"lng":-5.2755,"kind":"capital","pop":206499},{"name":"Ottawa","lat":45.4186,"lng":-75.702,"kind":"capital","pop":1145000},{"name":"Belgrade","lat":44.8206,"lng":20.466,"kind":"capital","pop":1099000},{"name":"Bandar Seri Begawan","lat":4.8833,"lng":114.9333,"kind":"capital","pop":296500},{"name":"Sucre","lat":-19.041,"lng":-65.2595,"kind":"capital","pop":224838},{"name":"Belmopan","lat":17.252,"lng":-88.7671,"kind":"capital","pop":15220},{"name":"Bangui","lat":4.3666,"lng":18.5583,"kind":"capital","pop":831925},{"name":"Yaoundé","lat":3.8686,"lng":11.5147,"kind":"capital","pop":1611000},{"name":"Tirana","lat":41.3275,"lng":19.8189,"kind":"capital","pop":895350},{"name":"Yerevan","lat":40.1831,"lng":44.5116,"kind":"capital","pop":1102000},{"name":"Baku","lat":40.3972,"lng":49.8603,"kind":"capital","pop":2122300},{"name":"Phnom Penh","lat":11.552,"lng":104.9147,"kind":"capital","pop":1466000},{"name":"La Paz","lat":-16.496,"lng":-68.1519,"kind":"capital","pop":1590000},{"name":"Cotonou","lat":6.402,"lng":2.518,"kind":"capital","pop":762000},{"name":"Sofia","lat":42.6853,"lng":23.3147,"kind":"capital","pop":1185000},{"name":"Minsk","lat":53.9019,"lng":27.5647,"kind":"capital","pop":1805000},{"name":"Thimphu","lat":27.473,"lng":89.639,"kind":"capital","pop":98676},{"name":"Gaborone","lat":-24.6463,"lng":25.9119,"kind":"capital","pop":208411},{"name":"Canberra","lat":-35.283,"lng":149.129,"kind":"capital","pop":327700},{"name":"Ouagadougou","lat":12.3723,"lng":-1.5267,"kind":"capital","pop":1149000},{"name":"Sarajevo","lat":43.85,"lng":18.383,"kind":"capital","pop":696731},{"name":"Naypyidaw","lat":19.7685,"lng":96.1167,"kind":"capital","pop":930000},{"name":"Hamilton","lat":32.2942,"lng":-64.7839,"kind":"capital","pop":52320},{"name":"Nuku'alofa","lat":-21.1385,"lng":-175.2206,"kind":"capital","pop":42620},{"name":"Hargeisa","lat":9.56,"lng":44.0653,"kind":"capital","pop":477876},{"name":"Victoria","lat":-4.6166,"lng":55.45,"kind":"capital","pop":33576},{"name":"São Tomé","lat":0.3334,"lng":6.7333,"kind":"capital","pop":88219},{"name":"Apia","lat":-13.8415,"lng":-171.7386,"kind":"capital","pop":61916},{"name":"Valletta","lat":35.8997,"lng":14.5147,"kind":"capital","pop":368250},{"name":"Malé","lat":4.1667,"lng":73.4999,"kind":"capital","pop":112927},{"name":"Jerusalem","lat":31.7784,"lng":35.2066,"kind":"capital","pop":1029300},{"name":"Praia","lat":14.9167,"lng":-23.5167,"kind":"capital","pop":113364},{"name":"Nassau","lat":25.0834,"lng":-77.35,"kind":"capital","pop":227940},{"name":"Nicosia","lat":35.1667,"lng":33.3666,"kind":"capital","pop":224300},{"name":"Hanoi","lat":21.0353,"lng":105.8481,"kind":"capital","pop":4378000},{"name":"Ankara","lat":39.9292,"lng":32.8624,"kind":"capital","pop":3716000},{"name":"Budapest","lat":47.502,"lng":19.0814,"kind":"capital","pop":1679000},{"name":"Sanaa","lat":15.3567,"lng":44.2046,"kind":"capital","pop":2008000},{"name":"Bucharest","lat":44.4353,"lng":26.098,"kind":"capital","pop":1942000},{"name":"Damascus","lat":33.502,"lng":36.2981,"kind":"capital","pop":2466000},{"name":"Lisbon","lat":38.7247,"lng":-9.1468,"kind":"capital","pop":2812000},{"name":"Khartoum","lat":15.59,"lng":32.5322,"kind":"capital","pop":4754000},{"name":"Oslo","lat":59.9186,"lng":10.748,"kind":"capital","pop":835000},{"name":"Warsaw","lat":52.2519,"lng":20.9981,"kind":"capital","pop":1707000},{"name":"Pyongyang","lat":39.0214,"lng":125.7527,"kind":"capital","pop":3300000},{"name":"Dar es Salaam","lat":-6.7981,"lng":39.2664,"kind":"capital","pop":2930000},{"name":"Dublin","lat":53.335,"lng":-6.2509,"kind":"capital","pop":1059000},{"name":"Monrovia","lat":6.3146,"lng":-10.7997,"kind":"capital","pop":1041000},{"name":"Kuala Lumpur","lat":3.1686,"lng":101.698,"kind":"capital","pop":1448000},{"name":"Havana","lat":23.1339,"lng":-82.3661,"kind":"capital","pop":2174000},{"name":"Prague","lat":50.0853,"lng":14.464,"kind":"capital","pop":1162000},{"name":"Kuwait City","lat":29.3717,"lng":47.9764,"kind":"capital","pop":2063000},{"name":"Santo Domingo","lat":18.472,"lng":-69.902,"kind":"capital","pop":2154000},{"name":"Accra","lat":5.552,"lng":-0.2187,"kind":"capital","pop":2121000},{"name":"Tripoli","lat":32.8925,"lng":13.18,"kind":"capital","pop":2189000},{"name":"Tel Aviv","lat":32.0819,"lng":34.7681,"kind":"capital","pop":3112000},{"name":"Helsinki","lat":60.1775,"lng":24.9322,"kind":"capital","pop":1115000},{"name":"København","lat":55.6805,"lng":12.5615,"kind":"capital","pop":1085000},{"name":"Abidjan","lat":5.3219,"lng":-4.042,"kind":"capital","pop":3802000},{"name":"Brasília","lat":-15.7814,"lng":-47.918,"kind":"capital","pop":3716996},{"name":"Brussels","lat":50.8353,"lng":4.3314,"kind":"capital","pop":1743000},{"name":"Dhaka","lat":23.725,"lng":90.4066,"kind":"capital","pop":12797394},{"name":"Luanda","lat":-8.8363,"lng":13.2325,"kind":"capital","pop":5172900},{"name":"Algiers","lat":36.765,"lng":3.0486,"kind":"capital","pop":3354000},{"name":"Yangon","lat":16.7853,"lng":96.1647,"kind":"capital","pop":4088000},{"name":"Caracas","lat":10.5029,"lng":-66.919,"kind":"capital","pop":2985000},{"name":"Kyiv","lat":50.4353,"lng":30.5147,"kind":"capital","pop":2709000},{"name":"Tashkent","lat":41.3136,"lng":69.293,"kind":"capital","pop":2184000},{"name":"Madrid","lat":40.402,"lng":-3.6853,"kind":"capital","pop":5567000},{"name":"Stockholm","lat":59.3527,"lng":18.0954,"kind":"capital","pop":1264000},{"name":"Bangkok","lat":13.7519,"lng":100.5147,"kind":"capital","pop":6704000},{"name":"Lima","lat":-12.0461,"lng":-77.052,"kind":"capital","pop":8012000},{"name":"Dakar","lat":14.7178,"lng":-17.4751,"kind":"capital","pop":2604000},{"name":"Johannesburg","lat":-26.1681,"lng":28.0281,"kind":"capital","pop":3435000},{"name":"Amsterdam","lat":52.3519,"lng":4.9147,"kind":"capital","pop":1031000},{"name":"Seoul","lat":37.5683,"lng":126.9978,"kind":"capital","pop":9796000},{"name":"Manila","lat":14.6061,"lng":120.9803,"kind":"capital","pop":11100000},{"name":"Berlin","lat":52.5238,"lng":13.3996,"kind":"capital","pop":3406000},{"name":"Kinshasa","lat":-4.3278,"lng":15.313,"kind":"capital","pop":7843000},{"name":"New Delhi","lat":28.6,"lng":77.2,"kind":"capital","pop":317797},{"name":"Athens","lat":37.9853,"lng":23.7314,"kind":"capital","pop":3242000},{"name":"Baghdad","lat":33.3406,"lng":44.3919,"kind":"capital","pop":5054000},{"name":"Addis Ababa","lat":9.0353,"lng":38.6981,"kind":"capital","pop":3100000},{"name":"Tehran","lat":35.6739,"lng":51.4224,"kind":"capital","pop":7873000},{"name":"Buenos Aires","lat":-34.6006,"lng":-58.3995,"kind":"capital","pop":12795000},{"name":"Kabul","lat":34.5186,"lng":69.1813,"kind":"capital","pop":3277000},{"name":"Vienna","lat":48.202,"lng":16.3647,"kind":"capital","pop":2400000},{"name":"Taipei","lat":25.0358,"lng":121.5683,"kind":"capital","pop":6900273},{"name":"Washington,  D.C.","lat":38.9015,"lng":-77.0114,"kind":"capital","pop":4338000},{"name":"London","lat":51.5019,"lng":-0.1187,"kind":"capital","pop":8567000},{"name":"Riyadh","lat":24.6428,"lng":46.7708,"kind":"capital","pop":4465000},{"name":"Cape Town","lat":-33.9181,"lng":18.433,"kind":"capital","pop":3215000},{"name":"Moscow","lat":55.7541,"lng":37.6136,"kind":"capital","pop":10452000},{"name":"Mexico City","lat":19.4444,"lng":-99.1329,"kind":"capital","pop":19028000},{"name":"Lagos","lat":6.4452,"lng":3.3896,"kind":"capital","pop":9466000},{"name":"Rome","lat":41.8979,"lng":12.4813,"kind":"capital","pop":3339000},{"name":"Beijing","lat":39.9308,"lng":116.3863,"kind":"capital","pop":11106000},{"name":"Nairobi","lat":-1.2814,"lng":36.8147,"kind":"capital","pop":3010000},{"name":"Jakarta","lat":-6.1725,"lng":106.8275,"kind":"capital","pop":9125000},{"name":"Bogota","lat":4.5984,"lng":-74.0853,"kind":"capital","pop":7772000},{"name":"Cairo","lat":30.0519,"lng":31.248,"kind":"capital","pop":11893000},{"name":"Tokyo","lat":35.687,"lng":139.7495,"kind":"capital","pop":35676000},{"name":"Paris","lat":48.8686,"lng":2.3314,"kind":"capital","pop":9904000},{"name":"Santiago","lat":-33.4481,"lng":-70.669,"kind":"capital","pop":5720000},{"name":"Singapore","lat":1.295,"lng":103.8539,"kind":"capital","pop":5183700},{"name":"Wellington","lat":-41.3,"lng":174.7833,"kind":"capital","pop":393400}]}